{"Sorathan Chaturapruek": {"lat": 37.7749295, "lng": -122.4194155, "formatted_address": "San Francisco, CA, USA", "location_type": "APPROXIMATE"}, "Kashif Nazir": {"lat": 37.4418834, "lng": -122.1430195, "formatted_address": "Palo Alto, CA, USA", "location_type": "APPROXIMATE"}, "David Ta": {"lat": 37.42410599999999, "lng": -122.1660756, "formatted_address": "Stanford, CA, USA", "location_type": "APPROXIMATE"}, "Kevin Khieu": {"lat": 37.42410599999999, "lng": -122.1660756, "formatted_address": "Stanford, CA, USA", "location_type": "APPROXIMATE"}, "Hormazd Godrej": {"lat": 37.42410599999999, "lng": -122.1660756, "formatted_address": "Stanford, CA, USA", "location_type": "APPROXIMATE"}, "Benjamin Yeh": {"lat": 37.09024, "lng": -95.712891, "formatted_address": "United States", "location_type": "APPROXIMATE"}, "Adrianna Tan": {"lat": null, "lng": null, "formatted_address": null, "location_type": null}, "Daniel Tang": {"lat": 37.42410599999999, "lng": -122.1660756, "formatted_address": "Stanford, CA, USA", "location_type": "APPROXIMATE"}, "Augustine Chemparathy": {"lat": 37.7154004, "lng": -122.4569974, "formatted_address": "BART, San Francisco, CA 94112, USA", "location_type": "GEOMETRIC_CENTER"}, "Kevin Bu": {"lat": 35.9940329, "lng": -78.898619, "formatted_address": "Durham, NC, USA", "location_type": "APPROXIMATE"}, "Jori Tytus": {"lat": 36.8252277, "lng": -119.7029194, "formatted_address": "Clovis, CA, USA", "location_type": "APPROXIMATE"}, "Ronald Tep": {"lat": 37.7154004, "lng": -122.4569974, "formatted_address": "BART, San Francisco, CA 94112, USA", "location_type": "GEOMETRIC_CENTER"}, "Alexander Ku": {"lat": 37.4418834, "lng": -122.1430195, "formatted_address": "Palo Alto, CA, USA", "location_type": "APPROXIMATE"}, "Michelle Zhang": {"lat": 37.7154004, "lng": -122.4569974, "formatted_address": "BART, San Francisco, CA 94112, USA", "location_type": "GEOMETRIC_CENTER"}, "Marisa Lin": {"lat": 37.42410599999999, "lng": -122.1660756, "formatted_address": "Stanford, CA, USA", "location_type": "APPROXIMATE"}, "Austin Sparkman": {"lat": 31.549333, "lng": -97.1466695, "formatted_address": "Waco, TX, USA", "location_type": "APPROXIMATE"}, "Amy Tan": {"lat": 42.3736158, "lng": -71.10973349999999, "formatted_address": "Cambridge, MA, USA", "location_type": "APPROXIMATE"}, "David T. Lee": {"lat": 37.7154004, "lng": -122.4569974, "formatted_address": "BART, San Francisco, CA 94112, USA", "location_type": "GEOMETRIC_CENTER"}, "Maya Ganesan": {"lat": 47.6739881, "lng": -122.121512, "formatted_address": "Redmond, WA, USA", "location_type": "APPROXIMATE"}}
